business_id,business_name,weighted_rating,hours_of_today,longitude,latitude
HgVirOyCSjxrrqDzuYtUNQ,The Church of Jesus Christ of Latter-day Saints,24,5:30-21:0,-115.0200319,36.1745804
ZL_Xpue6CcyaHG7bsOPqng,Southern Hills Baptist Church,38,0:0-23:0,-115.2330677,36.02729
1AdIZu9j2lTl8tUy2neDDQ,St Thomas Aquinas Catholic Newman Community,13,10:0-19:0,-115.139551,36.10343
2QyprNEv-eczMqU7gnzFfQ,Vegas Simple Wedding Chapel,51,0:0-23:0,-115.1448239,36.167029
aUc1gQmIwv1sQKt2u4AWPA,St Joseph Husband of Mary Roman Catholic Church,27,8:0-20:0,-115.2515106,36.1442895
gBDAgyz_OxfR5hhPxkMuzQ,Church of Scientology,10,9:0-22:30,-115.1123721,36.1251437
